$GPRMC,063150.000,A,4738.7642,N,12208.092679910208801,W,0.00,0.00,220621,,,A*46
$GPRMC,063155.000,A,4738.2977814076466,N,12208.21896221387,W,0.00,0.00,220621,,,A*76
$GPRMC,063200.000,A,4737.9529347733502,N,12208.79140885997,W,0.00,0.00,220621,,,A*7E
$GPRMC,063205.000,A,4737.7780842401024,N,12209.483273958284,W,0.00,0.00,220621,,,A*42
$GPRMC,063210.000,A,4737.8038840331894,N,12210.245598876866001,W,0.00,0.00,220621,,,A*74
$GPRMC,063215.000,A,4737.92663772381176,N,12210.985925468202801,W,0.00,0.00,220621,,,A*44
$GPRMC,063220.000,A,4738.196842733265804,N,12211.541238727022,W,0.00,0.00,220621,,,A*44
$GPRMC,063225.000,A,4738.547812786723405,N,12212.0865150805118,W,0.00,0.00,220621,,,A*7A
$GPRMC,063230.000,A,4738.51027957481,N,12212.8262806492118,W,0.00,0.00,220621,,,A*77
$GPRMC,063235.000,A,4738.222481792222595,N,12213.453636415555401,W,0.00,0.00,220621,,,A*7A
$GPRMC,063240.000,A,4738.2277102688684,N,12214.1887254361562,W,0.00,0.00,220621,,,A*79
$GPRMC,063245.000,A,4738.3590717061466,N,12214.931833260566,W,0.00,0.00,220621,,,A*4C
$GPRMC,063251.000,A,4738.47411055310984,N,12215.6814270992984,W,0.00,0.00,220621,,,A*4E
$GPRMC,063256.000,A,4738.5905028564194,N,12216.430516186376,W,0.00,0.00,220621,,,A*43
$GPRMC,063301.000,A,4738.6932316214018,N,12217.1809293465572,W,0.00,0.00,220621,,,A*7A
$GPRMC,063306.000,A,4738.712606956796,N,12217.9459165184474,W,0.00,0.00,220621,,,A*49
$GPRMC,063311.000,A,4738.591479118798404,N,12218.6907108799058,W,0.00,0.00,220621,,,A*7D
$GPRMC,063316.000,A,4738.65157305602936,N,12219.3502570524428,W,0.00,0.00,220621,,,A*4C
$GPRMC,063321.000,A,4739.1695215515635,N,12219.3429446408072,W,0.00,0.00,220621,,,A*73
$GPRMC,063326.000,A,4739.68711483006004,N,12219.3171952492892,W,0.00,0.00,220621,,,A*49
$GPRMC,063331.000,A,4740.2049281185691,N,12219.3037914587618,W,0.00,0.00,220621,,,A*7B
$GPRMC,063336.000,A,4740.7187088030242,N,12219.229457083056197,W,0.00,0.00,220621,,,A*72
$GPRMC,063341.000,A,4741.178183061311955,N,12219.5198613885542,W,0.00,0.00,220621,,,A*7B
$GPRMC,063346.000,A,4741.4301062595206,N,12220.082939849075597,W,0.00,0.00,220621,,,A*72
$GPRMC,063351.000,A,4741.434330284757195,N,12220.8505278727148,W,0.00,0.00,220621,,,A*71
$GPRMC,063356.000,A,4741.437200000000004,N,12221.6200413953354,W,0.00,0.00,220621,,,A*71
$GPRMC,063402.000,A,4741.437799999999996,N,12222.3894377690348,W,0.00,0.00,220621,,,A*79
$GPRMC,063407.000,A,4741.4354119846928,N,12223.1588232040388,W,0.00,0.00,220621,,,A*7F
$GPRMC,063412.000,A,4741.4483084512028,N,12223.9070704227572,W,0.00,0.00,220621,,,A*7C
$GPRMC,063417.000,A,4741.387499966123,N,12223.9882947546716,W,0.00,0.00,220621,,,A*4F
$GPRMC,063422.000,A,4741.3472588476112,N,12224.169837100367598,W,0.00,0.00,220621,,,A*7C
$GPRMC,063427.000,A,4741.32446,N,12224.1779,W,0.00,0.00,220621,,,A*43
$GPRMC,063524.000,A,4741.5102327691256,N,12224.018781307289597,W,0.00,0.00,220621,,,A*7A
$GPRMC,063529.000,A,4741.4354,N,12223.69201738259,W,0.00,0.00,220621,,,A*4C
$GPRMC,063534.000,A,4741.437799999999996,N,12222.8745234525776,W,0.00,0.00,220621,,,A*77
$GPRMC,063539.000,A,4741.439,N,12222.057020420134997,W,0.00,0.00,220621,,,A*7D
$GPRMC,063544.000,A,4741.43546532946304,N,12221.2395237793874,W,0.00,0.00,220621,,,A*48
$GPRMC,063549.000,A,4741.431799999999996,N,12220.4237942475848,W,0.00,0.00,220621,,,A*79
$GPRMC,063554.000,A,4741.304895818212394,N,12219.715914760355602,W,0.00,0.00,220621,,,A*73
$GPRMC,063559.000,A,4740.85437139803476,N,12219.271634475387803,W,0.00,0.00,220621,,,A*47
$GPRMC,063604.000,A,4740.3078689025974,N,12219.327343095116,W,0.00,0.00,220621,,,A*4E
$GPRMC,063609.000,A,4739.75807370059924,N,12219.340247514914,W,0.00,0.00,220621,,,A*73
$GPRMC,063614.000,A,4739.2081555137158,N,12219.3533353034504,W,0.00,0.00,220621,,,A*7D
$GPRMC,063620.000,A,4738.658624049955705,N,12219.3779856686966,W,0.00,0.00,220621,,,A*74
$GPRMC,063625.000,A,4738.58664782576084,N,12218.6962793653646,W,0.00,0.00,220621,,,A*43
$GPRMC,063630.000,A,4738.711926174015204,N,12217.9039338498386,W,0.00,0.00,220621,,,A*7F
$GPRMC,063635.000,A,4738.6844080846919,N,12217.090732457578397,W,0.00,0.00,220621,,,A*70
$GPRMC,063640.000,A,4738.5630240244472,N,12216.29654985224,W,0.00,0.00,220621,,,A*79
$GPRMC,063645.000,A,4738.4375238347288,N,12215.501354358244999,W,0.00,0.00,220621,,,A*7B
$GPRMC,063650.000,A,4738.3142782912118,N,12214.705261195441999,W,0.00,0.00,220621,,,A*7A
$GPRMC,063655.000,A,4738.1642646677042,N,12213.920735955345199,W,0.00,0.00,220621,,,A*74
$GPRMC,063700.000,A,4738.3555358429906,N,12213.211687194329,W,0.00,0.00,220621,,,A*47
$GPRMC,063705.000,A,4738.5764,N,12212.469867919274,W,0.00,0.00,220621,,,A*76
$GPRMC,063710.000,A,4738.3556505606182,N,12211.7549792464592,W,0.00,0.00,220621,,,A*76
$GPRMC,063716.000,A,4737.928728269369,N,12211.2637658797928,W,0.00,0.00,220621,,,A*44
$GPRMC,063721.000,A,4737.8235319843214,N,12210.473665604169799,W,0.00,0.00,220621,,,A*7E
$GPRMC,063726.000,A,4737.788011139366,N,12209.671791803486,W,0.00,0.00,220621,,,A*71
$GPRMC,063731.000,A,4737.879561528485,N,12208.8988820684972,W,0.00,0.00,220621,,,A*48
$GPRMC,063736.000,A,4738.2376796687342,N,12208.279062048101599,W,0.00,0.00,220621,,,A*7A
$GPRMC,063741.000,A,4738.7398713520982,N,12208.047378652928,W,0.00,0.00,220621,,,A*46
$GPRMC,063746.000,A,4738.68212,N,12207.80822,W,0.00,0.00,220621,,,A*78
