$GPRMC,074239.000,A,4738.75706773578644,N,12208.128216933947,W,0.00,0.00,220621,,,A*72
$GPRMC,074245.000,A,4738.250159720384005,N,12208.284057542309,W,0.00,0.00,220621,,,A*48
$GPRMC,074250.000,A,4737.8902324505966,N,12208.9014770856332,W,0.00,0.00,220621,,,A*79
$GPRMC,074255.000,A,4737.7976082909314,N,12209.6732386024388,W,0.00,0.00,220621,,,A*7C
$GPRMC,074300.000,A,4737.8538333469118,N,12210.4739562836312,W,0.00,0.00,220621,,,A*7D
$GPRMC,074305.000,A,4737.9405675048056,N,12211.270218762014,W,0.00,0.00,220621,,,A*41
$GPRMC,074310.000,A,4737.631913409961996,N,12211.3327232450444,W,0.00,0.00,220621,,,A*77
$GPRMC,074315.000,A,4737.0816189711206,N,12211.3388,W,0.00,0.00,220621,,,A*47
$GPRMC,074320.000,A,4736.5324909423151,N,12211.3019922757802,W,0.00,0.00,220621,,,A*71
$GPRMC,074325.000,A,4736.0423495133128,N,12210.9370148559578,W,0.00,0.00,220621,,,A*7C
$GPRMC,074330.000,A,4735.495171160417,N,12210.8784312286706,W,0.00,0.00,220621,,,A*4B
$GPRMC,074335.000,A,4734.9839053197446,N,12210.5947257450044,W,0.00,0.00,220621,,,A*71
$GPRMC,074340.000,A,4734.7812654348596,N,12211.21341108626,W,0.00,0.00,220621,,,A*78
$GPRMC,074345.000,A,4734.7456813792826,N,12212.0036289656252,W,0.00,0.00,220621,,,A*72
$GPRMC,074350.000,A,4734.7498566404558,N,12212.7959078418584,W,0.00,0.00,220621,,,A*7C
$GPRMC,074356.000,A,4735.0677302641676,N,12213.454703949725001,W,0.00,0.00,220621,,,A*7B
$GPRMC,074401.000,A,4735.361701236022995,N,12214.141774596068,W,0.00,0.00,220621,,,A*4A
$GPRMC,074406.000,A,4735.4938767325376,N,12214.8732711884168,W,0.00,0.00,220621,,,A*7D
$GPRMC,074411.000,A,4735.38675264423704,N,12215.6396663865098,W,0.00,0.00,220621,,,A*44
$GPRMC,074416.000,A,4735.40487341934296,N,12216.4552859548028,W,0.00,0.00,220621,,,A*41
$GPRMC,074421.000,A,4735.426616168212405,N,12217.270578551222002,W,0.00,0.00,220621,,,A*7F
$GPRMC,074426.000,A,4735.43216735515796,N,12218.0864247856832,W,0.00,0.00,220621,,,A*44
$GPRMC,074431.000,A,4735.38746003559596,N,12218.412872042715797,W,0.00,0.00,220621,,,A*49
$GPRMC,074436.000,A,4734.898257014028204,N,12218.0393253594152,W,0.00,0.00,220621,,,A*74
$GPRMC,074441.000,A,4734.408592660718,N,12217.667287951193,W,0.00,0.00,220621,,,A*78
$GPRMC,074446.000,A,4733.92851870694784,N,12217.314866716545197,W,0.00,0.00,220621,,,A*45
$GPRMC,074451.000,A,4733.844952729035796,N,12216.6021088705238,W,0.00,0.00,220621,,,A*75
$GPRMC,074456.000,A,4733.6800861185194,N,12215.9117778963158,W,0.00,0.00,220621,,,A*7C
$GPRMC,074502.000,A,4733.1742550008436,N,12215.6201294549132,W,0.00,0.00,220621,,,A*70
$GPRMC,074507.000,A,4733.1116020060304,N,12215.246002006030402,W,0.00,0.00,220621,,,A*7B
$GPRMC,074512.000,A,4733.065580000000004,N,12214.95596,W,0.00,0.00,220621,,,A*77
$GPRMC,074608.000,A,4733.01042190058396,N,12215.4002554751456,W,0.00,0.00,220621,,,A*4A
$GPRMC,074613.000,A,4733.4131719218797,N,12215.7471383409128,W,0.00,0.00,220621,,,A*79
$GPRMC,074618.000,A,4733.8402432122782,N,12216.1665687045026,W,0.00,0.00,220621,,,A*7F
$GPRMC,074623.000,A,4733.8488955303496,N,12216.978420147113,W,0.00,0.00,220621,,,A*47
$GPRMC,074628.000,A,4734.1764188257526,N,12217.4298371066372,W,0.00,0.00,220621,,,A*75
$GPRMC,074633.000,A,4734.6428286344726,N,12217.842971475854,W,0.00,0.00,220621,,,A*45
$GPRMC,074638.000,A,4735.1317715358266,N,12218.2173919210064,W,0.00,0.00,220621,,,A*76
$GPRMC,074643.000,A,4735.40070133118276,N,12217.9360905204224,W,0.00,0.00,220621,,,A*42
$GPRMC,074648.000,A,4735.394865801797,N,12217.1205281799614,W,0.00,0.00,220621,,,A*4E
$GPRMC,074654.000,A,4735.3766223815138,N,12216.3049081725962,W,0.00,0.00,220621,,,A*75
$GPRMC,074659.000,A,4735.3587176679296,N,12215.4892970002142,W,0.00,0.00,220621,,,A*70
$GPRMC,074704.000,A,4735.5087122886956,N,12214.733789401738399,W,0.00,0.00,220621,,,A*74
$GPRMC,074709.000,A,4735.280580620068406,N,12214.0206386378426,W,0.00,0.00,220621,,,A*7F
$GPRMC,074714.000,A,4734.9899771594558,N,12213.3285684058802,W,0.00,0.00,220621,,,A*7E
$GPRMC,074719.000,A,4734.6997563952676,N,12212.6543220439934,W,0.00,0.00,220621,,,A*7F
$GPRMC,074724.000,A,4734.758742874039996,N,12211.868804691500001,W,0.00,0.00,220621,,,A*72
$GPRMC,074729.000,A,4734.753137032255395,N,12211.0670912000534,W,0.00,0.00,220621,,,A*72
$GPRMC,074734.000,A,4734.9437068188674,N,12210.4955279768486,W,0.00,0.00,220621,,,A*7F
$GPRMC,074739.000,A,4735.43976599970764,N,12210.8159418295202,W,0.00,0.00,220621,,,A*45
$GPRMC,074744.000,A,4735.9835721232928,N,12210.830990084063599,W,0.00,0.00,220621,,,A*7C
$GPRMC,074749.000,A,4736.4551442172214,N,12211.24868141372,W,0.00,0.00,220621,,,A*71
$GPRMC,074754.000,A,4737.000129303863,N,12211.3100727585212,W,0.00,0.00,220621,,,A*44
$GPRMC,074759.000,A,4737.549076434281,N,12211.2811421919218,W,0.00,0.00,220621,,,A*41
$GPRMC,074805.000,A,4737.9158,N,12210.9421157906282,W,0.00,0.00,220621,,,A*4F
$GPRMC,074810.000,A,4737.78336603189044,N,12210.1607692574102,W,0.00,0.00,220621,,,A*40
$GPRMC,074815.000,A,4737.7629743670947,N,12209.3500047465494,W,0.00,0.00,220621,,,A*73
$GPRMC,074820.000,A,4738.0208612719502,N,12208.651390092272601,W,0.00,0.00,220621,,,A*75
$GPRMC,074825.000,A,4738.417524871253,N,12208.1000418574448,W,0.00,0.00,220621,,,A*4D
$GPRMC,074830.000,A,4738.7632341311324,N,12207.7575910499744,W,0.00,0.00,220621,,,A*74
$GPRMC,074835.000,A,4738.68212,N,12207.80822,W,0.00,0.00,220621,,,A*75
